{
  "city": "Guangzhou",
  "source": "amap_subway",
  "lines": [
    {
      "name": "Line 1",
      "stations": [
        {
          "name": "Xilan",
          "longitude": "113.231514",
          "latitude": "23.065063"
        },
        {
          "name": "Kengkou",
          "longitude": "113.232498",
          "latitude": "23.078878"
        },
        {
          "name": "Huadiwan",
          "longitude": "113.234030",
          "latitude": "23.087055"
        },
        {
          "name": "Fangcun",
          "longitude": "113.235870",
          "latitude": "23.098570"
        },
        {
          "name": "Huangsha",
          "longitude": "113.239856",
          "latitude": "23.110524"
        },
        {
          "name": "Changshou Road",
          "longitude": "113.242271",
          "latitude": "23.118402"
        },
        {
          "name": "Chen Clan Ancestral Hall",
          "longitude": "113.246439",
          "latitude": "23.125727"
        },
        {
          "name": "Ximenkou",
          "longitude": "113.255830",
          "latitude": "23.125219"
        },
        {
          "name": "Gongyuanqian",
          "longitude": "113.264315",
          "latitude": "23.125446"
        },
        {
          "name": "Nongjiangsuo",
          "longitude": "113.275602",
          "latitude": "23.126623"
        },
        {
          "name": "Lingyuan Cemetery",
          "longitude": "113.285663",
          "latitude": "23.126704"
        },
        {
          "name": "Dongshankou",
          "longitude": "113.295373",
          "latitude": "23.123980"
        },
        {
          "name": "Yangji",
          "longitude": "113.308877",
          "latitude": "23.128137"
        },
        {
          "name": "Tiyu Xilu",
          "longitude": "113.321503",
          "latitude": "23.131138"
        },
        {
          "name": "Sports Center",
          "longitude": "113.328376",
          "latitude": "23.134970"
        },
        {
          "name": "Guangzhou East Railway Station",
          "longitude": "113.324493",
          "latitude": "23.151077"
        }
      ]
    },
    {
      "name": "Foshan Line 2",
      "stations": [
        {
          "name": "Guangzhou South Station",
          "longitude": "113.269815",
          "latitude": "22.988773"
        },
        {
          "name": "Linyuedong (Line 2)",
          "longitude": "113.249693",
          "latitude": "22.993909"
        },
        {
          "name": "Linyuexi",
          "longitude": "113.237161",
          "latitude": "22.993744"
        },
        {
          "name": "Shizhou",
          "longitude": "113.216131",
          "latitude": "22.990593"
        },
        {
          "name": "Xianchong",
          "longitude": "113.198254",
          "latitude": "22.983006"
        },
        {
          "name": "Flower World",
          "longitude": "113.161350",
          "latitude": "22.973388"
        },
        {
          "name": "Dengzhou",
          "longitude": "113.148863",
          "latitude": "22.979296"
        },
        {
          "name": "Wanhua",
          "longitude": "113.131767",
          "latitude": "22.992076"
        },
        {
          "name": "Shiliang",
          "longitude": "113.118747",
          "latitude": "22.992691"
        },
        {
          "name": "Kuiqi Road",
          "longitude": "113.108612",
          "latitude": "22.993964"
        },
        {
          "name": "Shagang",
          "longitude": "113.094247",
          "latitude": "22.996518"
        },
        {
          "name": "Shiwan",
          "longitude": "113.083286",
          "latitude": "23.005298"
        },
        {
          "name": "Zhangcha",
          "longitude": "113.067748",
          "latitude": "23.011037"
        },
        {
          "name": "Smart New City",
          "longitude": "113.055418",
          "latitude": "23.011163"
        },
        {
          "name": "Ludaohu",
          "longitude": "113.034239",
          "latitude": "23.001982"
        },
        {
          "name": "Huchong",
          "longitude": "113.011388",
          "latitude": "23.002970"
        },
        {
          "name": "Nanzhuang",
          "longitude": "113.006550",
          "latitude": "22.982952"
        }
      ]
    },
    {
      "name": "Line 2",
      "stations": [
        {
          "name": "Guangzhou South Station",
          "longitude": "113.269815",
          "latitude": "22.988773"
        },
        {
          "name": "Shibi",
          "longitude": "113.277964",
          "latitude": "22.994136"
        },
        {
          "name": "Huijiang",
          "longitude": "113.286394",
          "latitude": "23.013047"
        },
        {
          "name": "Nanpu",
          "longitude": "113.293154",
          "latitude": "23.032929"
        },
        {
          "name": "Luoxi",
          "longitude": "113.298665",
          "latitude": "23.042896"
        },
        {
          "name": "Nanzhou",
          "longitude": "113.297449",
          "latitude": "23.064732"
        },
        {
          "name": "Dongxiao Nan",
          "longitude": "113.294174",
          "latitude": "23.071333"
        },
        {
          "name": "Jiangtai Road",
          "longitude": "113.280570",
          "latitude": "23.082231"
        },
        {
          "name": "Changgang",
          "longitude": "113.276885",
          "latitude": "23.090654"
        },
        {
          "name": "Jiangnan West",
          "longitude": "113.273918",
          "latitude": "23.097214"
        },
        {
          "name": "Shiergong",
          "longitude": "113.269890",
          "latitude": "23.105996"
        },
        {
          "name": "Haizhu Square",
          "longitude": "113.265344",
          "latitude": "23.114796"
        },
        {
          "name": "Gongyuanqian",
          "longitude": "113.264315",
          "latitude": "23.125446"
        },
        {
          "name": "Memorial Hall",
          "longitude": "113.263431",
          "latitude": "23.132179"
        },
        {
          "name": "Yuexiu Park",
          "longitude": "113.261366",
          "latitude": "23.140041"
        },
        {
          "name": "Guangzhou Railway Station",
          "longitude": "113.256603",
          "latitude": "23.148143"
        },
        {
          "name": "Sanyuanli",
          "longitude": "113.256851",
          "latitude": "23.159402"
        },
        {
          "name": "Feixiang Park",
          "longitude": "113.263752",
          "latitude": "23.168915"
        },
        {
          "name": "Baiyun Park",
          "longitude": "113.270966",
          "latitude": "23.181613"
        },
        {
          "name": "Baiyun Cultural Plaza",
          "longitude": "113.275602",
          "latitude": "23.189574"
        },
        {
          "name": "Xiaogang",
          "longitude": "113.280697",
          "latitude": "23.198580"
        },
        {
          "name": "Jiangxia",
          "longitude": "113.283451",
          "latitude": "23.211301"
        },
        {
          "name": "Huangbian",
          "longitude": "113.287376",
          "latitude": "23.221645"
        },
        {
          "name": "Jiahe Wanggang",
          "longitude": "113.289243",
          "latitude": "23.237460"
        }
      ]
    },
    {
      "name": "Line 3",
      "stations": [
        {
          "name": "Haibang",
          "longitude": "113.475352",
          "latitude": "22.939553"
        },
        {
          "name": "Haiyong Road",
          "longitude": "113.457735",
          "latitude": "22.942013"
        },
        {
          "name": "Shiqi Nan",
          "longitude": "113.439881",
          "latitude": "22.938109"
        },
        {
          "name": "Bangjiang",
          "longitude": "113.409637",
          "latitude": "22.936782"
        },
        {
          "name": "Panyu Square",
          "longitude": "113.385642",
          "latitude": "22.935482"
        },
        {
          "name": "Shiqiao",
          "longitude": "113.361726",
          "latitude": "22.949743"
        },
        {
          "name": "Hanxi Changlong",
          "longitude": "113.329955",
          "latitude": "22.992812"
        },
        {
          "name": "Dashi",
          "longitude": "113.321744",
          "latitude": "23.017761"
        },
        {
          "name": "Xiajiao",
          "longitude": "113.320837",
          "latitude": "23.038007"
        },
        {
          "name": "Lijiao",
          "longitude": "113.319228",
          "latitude": "23.054798"
        },
        {
          "name": "Datang",
          "longitude": "113.321677",
          "latitude": "23.077974"
        },
        {
          "name": "Kecun",
          "longitude": "113.320331",
          "latitude": "23.096197"
        },
        {
          "name": "Canton Tower",
          "longitude": "113.323464",
          "latitude": "23.106483"
        },
        {
          "name": "Zhujiang New Town",
          "longitude": "113.321202",
          "latitude": "23.119366"
        },
        {
          "name": "Tiyu Xilu",
          "longitude": "113.321503",
          "latitude": "23.131138"
        },
        {
          "name": "Shipaiqiao",
          "longitude": "113.332124",
          "latitude": "23.133135"
        },
        {
          "name": "Gangding",
          "longitude": "113.339601",
          "latitude": "23.134880"
        },
        {
          "name": "Huashi",
          "longitude": "113.345330",
          "latitude": "23.140290"
        },
        {
          "name": "Wushan",
          "longitude": "113.351812",
          "latitude": "23.152833"
        },
        {
          "name": "Tianhe Coach Terminal",
          "longitude": "113.343986",
          "latitude": "23.171175"
        }
      ]
    },
    {
      "name": "Line 3",
      "stations": [
        {
          "name": "Airport North (Terminal 2)",
          "longitude": "113.305140",
          "latitude": "23.395529"
        },
        {
          "name": "Airport South (Terminal 1)",
          "longitude": "113.303021",
          "latitude": "23.386415"
        },
        {
          "name": "Gaozeng",
          "longitude": "113.295504",
          "latitude": "23.355162"
        },
        {
          "name": "Renhe",
          "longitude": "113.295995",
          "latitude": "23.335224"
        },
        {
          "name": "Longgui",
          "longitude": "113.300834",
          "latitude": "23.288736"
        },
        {
          "name": "Jiahe Wanggang",
          "longitude": "113.289243",
          "latitude": "23.237460"
        },
        {
          "name": "Baiyun Avenue North",
          "longitude": "113.297480",
          "latitude": "23.222149"
        },
        {
          "name": "Yongtai",
          "longitude": "113.306235",
          "latitude": "23.219881"
        },
        {
          "name": "Tonghe",
          "longitude": "113.326264",
          "latitude": "23.197060"
        },
        {
          "name": "Jingxi Nanfang Hospital",
          "longitude": "113.326126",
          "latitude": "23.185225"
        },
        {
          "name": "Meihuayuan",
          "longitude": "113.320408",
          "latitude": "23.175098"
        },
        {
          "name": "Yantang",
          "longitude": "113.327058",
          "latitude": "23.160257"
        },
        {
          "name": "Guangzhou East Railway Station",
          "longitude": "113.324493",
          "latitude": "23.151077"
        },
        {
          "name": "Linhe West",
          "longitude": "113.323902",
          "latitude": "23.141363"
        },
        {
          "name": "Tiyu Xilu",
          "longitude": "113.321503",
          "latitude": "23.131138"
        }
      ]
    },
    {
      "name": "Line 4",
      "stations": [
        {
          "name": "Huangcun",
          "longitude": "113.407274",
          "latitude": "23.131814"
        },
        {
          "name": "Chebei",
          "longitude": "113.396489",
          "latitude": "23.124704"
        },
        {
          "name": "Chebei South",
          "longitude": "113.389561",
          "latitude": "23.115930"
        },
        {
          "name": "Wanshengwei",
          "longitude": "113.384796",
          "latitude": "23.097712"
        },
        {
          "name": "Guanzhou",
          "longitude": "113.376960",
          "latitude": "23.067763"
        },
        {
          "name": "University Town North",
          "longitude": "113.385795",
          "latitude": "23.057937"
        },
        {
          "name": "University Town South",
          "longitude": "113.400478",
          "latitude": "23.043408"
        },
        {
          "name": "Xinzao",
          "longitude": "113.415714",
          "latitude": "23.028182"
        },
        {
          "name": "Shiqi",
          "longitude": "113.465198",
          "latitude": "22.957262"
        },
        {
          "name": "Haibang",
          "longitude": "113.475352",
          "latitude": "22.939553"
        },
        {
          "name": "Di Yong",
          "longitude": "113.484809",
          "latitude": "22.919557"
        },
        {
          "name": "Dongchong",
          "longitude": "113.478928",
          "latitude": "22.885635"
        },
        {
          "name": "Qingsheng",
          "longitude": "113.490456",
          "latitude": "22.866999"
        },
        {
          "name": "Huangge Auto City",
          "longitude": "113.509719",
          "latitude": "22.835812"
        },
        {
          "name": "Huangge",
          "longitude": "113.518768",
          "latitude": "22.824736"
        },
        {
          "name": "Jiaomen",
          "longitude": "113.527502",
          "latitude": "22.800704"
        },
        {
          "name": "Jinzhou",
          "longitude": "113.538886",
          "latitude": "22.792178"
        },
        {
          "name": "Feishajiao",
          "longitude": "113.540758",
          "latitude": "22.781854"
        },
        {
          "name": "Guanglong",
          "longitude": "113.540728",
          "latitude": "22.772143"
        },
        {
          "name": "Dayong",
          "longitude": "113.555975",
          "latitude": "22.759076"
        },
        {
          "name": "Tangkeng",
          "longitude": "113.573064",
          "latitude": "22.753098"
        },
        {
          "name": "Nanheng",
          "longitude": "113.594381",
          "latitude": "22.747885"
        },
        {
          "name": "Nansha Passenger Port",
          "longitude": "113.610968",
          "latitude": "22.766988"
        }
      ]
    },
    {
      "name": "Line 5",
      "stations": [
        {
          "name": "Jiaokou",
          "longitude": "113.208440",
          "latitude": "23.113796"
        },
        {
          "name": "Tanwei",
          "longitude": "113.218387",
          "latitude": "23.125234"
        },
        {
          "name": "Zhongshan Ba",
          "longitude": "113.233357",
          "latitude": "23.126307"
        },
        {
          "name": "Xichang",
          "longitude": "113.238056",
          "latitude": "23.137381"
        },
        {
          "name": "Xicun",
          "longitude": "113.242125",
          "latitude": "23.142222"
        },
        {
          "name": "Guangzhou Railway Station",
          "longitude": "113.256603",
          "latitude": "23.148143"
        },
        {
          "name": "Xiaobei",
          "longitude": "113.276905",
          "latitude": "23.139424"
        },
        {
          "name": "Taojin",
          "longitude": "113.286549",
          "latitude": "23.136365"
        },
        {
          "name": "Quzhuang",
          "longitude": "113.296725",
          "latitude": "23.134483"
        },
        {
          "name": "Zoo",
          "longitude": "113.307291",
          "latitude": "23.134503"
        },
        {
          "name": "Yangji",
          "longitude": "113.308877",
          "latitude": "23.128137"
        },
        {
          "name": "Wuyangcun",
          "longitude": "113.311641",
          "latitude": "23.119762"
        },
        {
          "name": "Zhujiang New Town",
          "longitude": "113.321202",
          "latitude": "23.119366"
        },
        {
          "name": "Liede",
          "longitude": "113.332105",
          "latitude": "23.118539"
        },
        {
          "name": "Tancun",
          "longitude": "113.345949",
          "latitude": "23.117366"
        },
        {
          "name": "Yuancun",
          "longitude": "113.363756",
          "latitude": "23.115515"
        },
        {
          "name": "Keyun Road",
          "longitude": "113.377215",
          "latitude": "23.119280"
        },
        {
          "name": "Chebei South",
          "longitude": "113.389561",
          "latitude": "23.115930"
        },
        {
          "name": "Dongpu",
          "longitude": "113.401562",
          "latitude": "23.109392"
        },
        {
          "name": "Sanxi",
          "longitude": "113.415784",
          "latitude": "23.104098"
        },
        {
          "name": "Yuzhu",
          "longitude": "113.432261",
          "latitude": "23.100431"
        },
        {
          "name": "Dashadi",
          "longitude": "113.446074",
          "latitude": "23.103227"
        },
        {
          "name": "Dashadong",
          "longitude": "113.458515",
          "latitude": "23.106216"
        },
        {
          "name": "Wenchong",
          "longitude": "113.469004",
          "latitude": "23.103796"
        },
        {
          "name": "Shuangsha",
          "longitude": "113.484289",
          "latitude": "23.097877"
        },
        {
          "name": "Miaotou",
          "longitude": "113.502726",
          "latitude": "23.084731"
        },
        {
          "name": "Xiayuan",
          "longitude": "113.518376",
          "latitude": "23.082901"
        },
        {
          "name": "Baoying Avenue",
          "longitude": "113.526056",
          "latitude": "23.074279"
        },
        {
          "name": "Xiagang",
          "longitude": "113.525278",
          "latitude": "23.063541"
        },
        {
          "name": "Huangpu New Port",
          "longitude": "113.524819",
          "latitude": "23.052347"
        }
      ]
    },
    {
      "name": "Line 6",
      "stations": [
        {
          "name": "Xiangxue",
          "longitude": "113.501224",
          "latitude": "23.172382"
        },
        {
          "name": "Luogang",
          "longitude": "113.481099",
          "latitude": "23.175589"
        },
        {
          "name": "Suyuan",
          "longitude": "113.468482",
          "latitude": "23.170970"
        },
        {
          "name": "Xiangan",
          "longitude": "113.460177",
          "latitude": "23.172296"
        },
        {
          "name": "Jinfeng",
          "longitude": "113.451182",
          "latitude": "23.181468"
        },
        {
          "name": "Huangbei",
          "longitude": "113.433738",
          "latitude": "23.188379"
        },
        {
          "name": "Gaotangshi",
          "longitude": "113.410408",
          "latitude": "23.191057"
        },
        {
          "name": "Kemu Lang",
          "longitude": "113.395991",
          "latitude": "23.193462"
        },
        {
          "name": "Longdong",
          "longitude": "113.377520",
          "latitude": "23.190960"
        },
        {
          "name": "Botanical Garden",
          "longitude": "113.365686",
          "latitude": "23.190164"
        },
        {
          "name": "Changban",
          "longitude": "113.349435",
          "latitude": "23.178502"
        },
        {
          "name": "Tianhe Coach Terminal",
          "longitude": "113.343986",
          "latitude": "23.171175"
        },
        {
          "name": "Yantang",
          "longitude": "113.327058",
          "latitude": "23.160257"
        },
        {
          "name": "Tianpingjia",
          "longitude": "113.321353",
          "latitude": "23.159525"
        },
        {
          "name": "Shahe",
          "longitude": "113.312753",
          "latitude": "23.152429"
        },
        {
          "name": "Shahe Top",
          "longitude": "113.306967",
          "latitude": "23.147276"
        },
        {
          "name": "Huanghuagang",
          "longitude": "113.299907",
          "latitude": "23.141128"
        },
        {
          "name": "Quzhuang",
          "longitude": "113.296725",
          "latitude": "23.134483"
        },
        {
          "name": "Dongshankou",
          "longitude": "113.295373",
          "latitude": "23.123980"
        },
        {
          "name": "Donghu",
          "longitude": "113.288583",
          "latitude": "23.115102"
        },
        {
          "name": "Tuan Yi Da Square",
          "longitude": "113.278266",
          "latitude": "23.118111"
        },
        {
          "name": "Beijing Road",
          "longitude": "113.270268",
          "latitude": "23.118730"
        },
        {
          "name": "Haizhu Square",
          "longitude": "113.265344",
          "latitude": "23.114796"
        },
        {
          "name": "Yide Road",
          "longitude": "113.257200",
          "latitude": "23.113036"
        },
        {
          "name": "Culture Park",
          "longitude": "113.248976",
          "latitude": "23.109186"
        },
        {
          "name": "Huangsha",
          "longitude": "113.239856",
          "latitude": "23.110524"
        },
        {
          "name": "Ruyifang",
          "longitude": "113.231110",
          "latitude": "23.115164"
        },
        {
          "name": "Tanwei",
          "longitude": "113.218387",
          "latitude": "23.125234"
        },
        {
          "name": "Hesha",
          "longitude": "113.217405",
          "latitude": "23.135576"
        },
        {
          "name": "Shabei",
          "longitude": "113.211397",
          "latitude": "23.152430"
        },
        {
          "name": "Hengsha",
          "longitude": "113.206791",
          "latitude": "23.158187"
        },
        {
          "name": "Xunfenggang",
          "longitude": "113.201941",
          "latitude": "23.164110"
        }
      ]
    },
    {
      "name": "Line 7",
      "stations": [
        {
          "name": "Yanshan",
          "longitude": "113.475020",
          "latitude": "23.195180"
        },
        {
          "name": "Shuixi",
          "longitude": "113.478780",
          "latitude": "23.187489"
        },
        {
          "name": "Luogang",
          "longitude": "113.481099",
          "latitude": "23.175589"
        },
        {
          "name": "Kefeng Road",
          "longitude": "113.466111",
          "latitude": "23.162857"
        },
        {
          "name": "Jiazhuang",
          "longitude": "113.460106",
          "latitude": "23.147830"
        },
        {
          "name": "Jitang",
          "longitude": "113.455914",
          "latitude": "23.132126"
        },
        {
          "name": "Dashadong",
          "longitude": "113.458515",
          "latitude": "23.106216"
        },
        {
          "name": "Yufengwei",
          "longitude": "113.455795",
          "latitude": "23.094844"
        },
        {
          "name": "Changzhou",
          "longitude": "113.429383",
          "latitude": "23.076198"
        },
        {
          "name": "Shenjing",
          "longitude": "113.409559",
          "latitude": "23.068711"
        },
        {
          "name": "University Town South",
          "longitude": "113.400478",
          "latitude": "23.043408"
        },
        {
          "name": "Banqiao",
          "longitude": "113.388139",
          "latitude": "23.016845"
        },
        {
          "name": "Yuangang",
          "longitude": "113.365641",
          "latitude": "23.015962"
        },
        {
          "name": "Nancun Wanbo",
          "longitude": "113.347555",
          "latitude": "23.004789"
        },
        {
          "name": "Hanxi Changlong",
          "longitude": "113.329955",
          "latitude": "22.992812"
        },
        {
          "name": "Zhongcun",
          "longitude": "113.316980",
          "latitude": "22.986437"
        },
        {
          "name": "Xiecun",
          "longitude": "113.295832",
          "latitude": "22.990579"
        },
        {
          "name": "Shibi",
          "longitude": "113.277964",
          "latitude": "22.994136"
        },
        {
          "name": "Guangzhou South Station",
          "longitude": "113.269815",
          "latitude": "22.988773"
        },
        {
          "name": "Dazhou",
          "longitude": "113.257295",
          "latitude": "22.983794"
        },
        {
          "name": "Chencun North",
          "longitude": "113.245244",
          "latitude": "22.976123"
        },
        {
          "name": "Chencun",
          "longitude": "113.236869",
          "latitude": "22.967991"
        },
        {
          "name": "Jinlong",
          "longitude": "113.241500",
          "latitude": "22.953137"
        },
        {
          "name": "Nanyong",
          "longitude": "113.238172",
          "latitude": "22.939321"
        },
        {
          "name": "Midea",
          "longitude": "113.226867",
          "latitude": "22.933506"
        },
        {
          "name": "Beijiao Park",
          "longitude": "113.211919",
          "latitude": "22.929958"
        },
        {
          "name": "Midea Avenue",
          "longitude": "113.207767",
          "latitude": "22.944766"
        }
      ]
    },
    {
      "name": "Line 8",
      "stations": [
        {
          "name": "Jiaoxin",
          "longitude": "113.216982",
          "latitude": "23.236888"
        },
        {
          "name": "Tinggang",
          "longitude": "113.219962",
          "latitude": "23.222616"
        },
        {
          "name": "Shijing",
          "longitude": "113.231799",
          "latitude": "23.211101"
        },
        {
          "name": "Xiaoping",
          "longitude": "113.243052",
          "latitude": "23.200518"
        },
        {
          "name": "Shitan",
          "longitude": "113.241010",
          "latitude": "23.187843"
        },
        {
          "name": "Julong",
          "longitude": "113.238723",
          "latitude": "23.181111"
        },
        {
          "name": "Shangbu",
          "longitude": "113.235759",
          "latitude": "23.170978"
        },
        {
          "name": "Tongde",
          "longitude": "113.234705",
          "latitude": "23.163525"
        },
        {
          "name": "Ezhangtan",
          "longitude": "113.235849",
          "latitude": "23.156363"
        },
        {
          "name": "Xicun",
          "longitude": "113.242125",
          "latitude": "23.142222"
        },
        {
          "name": "Rainbow Bridge",
          "longitude": "113.246524",
          "latitude": "23.134902"
        },
        {
          "name": "Chen Clan Ancestral Hall",
          "longitude": "113.246439",
          "latitude": "23.125727"
        },
        {
          "name": "Hualin Temple",
          "longitude": "113.247332",
          "latitude": "23.117676"
        },
        {
          "name": "Culture Park",
          "longitude": "113.248976",
          "latitude": "23.109186"
        },
        {
          "name": "Tongfu West",
          "longitude": "113.252372",
          "latitude": "23.101689"
        },
        {
          "name": "Fenghuang Xincun",
          "longitude": "113.255994",
          "latitude": "23.094705"
        },
        {
          "name": "Shayuan",
          "longitude": "113.260584",
          "latitude": "23.088625"
        },
        {
          "name": "Baogang Avenue",
          "longitude": "113.269700",
          "latitude": "23.086027"
        },
        {
          "name": "Changgang",
          "longitude": "113.276885",
          "latitude": "23.090654"
        },
        {
          "name": "Xiaogang",
          "longitude": "113.281883",
          "latitude": "23.093066"
        },
        {
          "name": "Zhongda",
          "longitude": "113.292863",
          "latitude": "23.092124"
        },
        {
          "name": "Lujiang",
          "longitude": "113.308219",
          "latitude": "23.095331"
        },
        {
          "name": "Kecun",
          "longitude": "113.320331",
          "latitude": "23.096197"
        },
        {
          "name": "Chigang",
          "longitude": "113.334582",
          "latitude": "23.096448"
        },
        {
          "name": "Modiesha",
          "longitude": "113.341285",
          "latitude": "23.098689"
        },
        {
          "name": "Xingang East",
          "longitude": "113.357010",
          "latitude": "23.098722"
        },
        {
          "name": "Pazhou",
          "longitude": "113.366700",
          "latitude": "23.098516"
        },
        {
          "name": "Wanshengwei",
          "longitude": "113.384796",
          "latitude": "23.097712"
        }
      ]
    },
    {
      "name": "Line 9",
      "stations": [
        {
          "name": "Gaozeng",
          "longitude": "113.295504",
          "latitude": "23.355162"
        },
        {
          "name": "Qingtang",
          "longitude": "113.262858",
          "latitude": "23.372206"
        },
        {
          "name": "Qingbu",
          "longitude": "113.250989",
          "latitude": "23.378122"
        },
        {
          "name": "Liantang",
          "longitude": "113.245149",
          "latitude": "23.389101"
        },
        {
          "name": "Ma'anshan Park",
          "longitude": "113.237846",
          "latitude": "23.399699"
        },
        {
          "name": "Huadu Square",
          "longitude": "113.222628",
          "latitude": "23.401307"
        },
        {
          "name": "Huaguoshan Park",
          "longitude": "113.218389",
          "latitude": "23.387119"
        },
        {
          "name": "Huacheng Road",
          "longitude": "113.212740",
          "latitude": "23.379622"
        },
        {
          "name": "Guangzhou North Station",
          "longitude": "113.201568",
          "latitude": "23.376419"
        },
        {
          "name": "Huadu Auto City",
          "longitude": "113.180367",
          "latitude": "23.379671"
        },
        {
          "name": "Feieling",
          "longitude": "113.155127",
          "latitude": "23.378345"
        }
      ]
    },
    {
      "name": "Line 10",
      "stations": [
        {
          "name": "Xilan",
          "longitude": "113.231514",
          "latitude": "23.065063"
        },
        {
          "name": "Huawei",
          "longitude": "113.245092",
          "latitude": "23.057549"
        },
        {
          "name": "Dongsha",
          "longitude": "113.264127",
          "latitude": "23.057041"
        },
        {
          "name": "Daganwei",
          "longitude": "113.283538",
          "latitude": "23.060525"
        },
        {
          "name": "Industrial Avenue South",
          "longitude": "113.288847",
          "latitude": "23.067856"
        },
        {
          "name": "Dongxiao Nan",
          "longitude": "113.294174",
          "latitude": "23.071333"
        },
        {
          "name": "Wufeng",
          "longitude": "113.296070",
          "latitude": "23.082006"
        },
        {
          "name": "Zhongda South Gate",
          "longitude": "113.296317",
          "latitude": "23.088952"
        },
        {
          "name": "Binjiang East Road",
          "longitude": "113.291848",
          "latitude": "23.104084"
        },
        {
          "name": "Donghu",
          "longitude": "113.288583",
          "latitude": "23.115102"
        },
        {
          "name": "Wuyangcun",
          "longitude": "113.311641",
          "latitude": "23.119762"
        },
        {
          "name": "Yangji East",
          "longitude": "113.315841",
          "latitude": "23.124419"
        }
      ]
    },
    {
      "name": "Line 11",
      "stations": [
        {
          "name": "Longtan",
          "longitude": "113.340902",
          "latitude": "23.079237"
        },
        {
          "name": "Chisha",
          "longitude": "113.363512",
          "latitude": "23.084747"
        },
        {
          "name": "Pazhou",
          "longitude": "113.366700",
          "latitude": "23.098516"
        },
        {
          "name": "Yuancun",
          "longitude": "113.363756",
          "latitude": "23.115515"
        },
        {
          "name": "Tianhe Park",
          "longitude": "113.364025",
          "latitude": "23.124903"
        },
        {
          "name": "Huajing Road",
          "longitude": "113.360100",
          "latitude": "23.134269"
        },
        {
          "name": "Huashi",
          "longitude": "113.345330",
          "latitude": "23.140290"
        },
        {
          "name": "Longkou West",
          "longitude": "113.337669",
          "latitude": "23.141471"
        },
        {
          "name": "Guangzhou East Railway Station",
          "longitude": "113.324493",
          "latitude": "23.151077"
        },
        {
          "name": "Shahe",
          "longitude": "113.312753",
          "latitude": "23.152429"
        },
        {
          "name": "Yuntai Garden",
          "longitude": "113.292550",
          "latitude": "23.153902"
        },
        {
          "name": "Dajinzhong Road",
          "longitude": "113.276910",
          "latitude": "23.161734"
        },
        {
          "name": "University of Chinese Medicine",
          "longitude": "113.269091",
          "latitude": "23.157364"
        },
        {
          "name": "Ziyuengang",
          "longitude": "113.263079",
          "latitude": "23.153457"
        },
        {
          "name": "Liuhua",
          "longitude": "113.257195",
          "latitude": "23.139884"
        },
        {
          "name": "Rainbow Bridge",
          "longitude": "113.246524",
          "latitude": "23.134902"
        },
        {
          "name": "Zhongshan Ba",
          "longitude": "113.233357",
          "latitude": "23.126307"
        },
        {
          "name": "Ruyifang",
          "longitude": "113.231110",
          "latitude": "23.115164"
        },
        {
          "name": "Shiweitang",
          "longitude": "113.224847",
          "latitude": "23.103770"
        },
        {
          "name": "Fangcun",
          "longitude": "113.235870",
          "latitude": "23.098570"
        },
        {
          "name": "Dachongkou",
          "longitude": "113.244551",
          "latitude": "23.089003"
        },
        {
          "name": "Shayong",
          "longitude": "113.246755",
          "latitude": "23.083097"
        },
        {
          "name": "Hedong East",
          "longitude": "113.251183",
          "latitude": "23.071265"
        },
        {
          "name": "Diyuan",
          "longitude": "113.264268",
          "latitude": "23.072908"
        },
        {
          "name": "Yangang",
          "longitude": "113.271988",
          "latitude": "23.075142"
        },
        {
          "name": "Jiangtai Road",
          "longitude": "113.280570",
          "latitude": "23.082231"
        },
        {
          "name": "Wufeng",
          "longitude": "113.296070",
          "latitude": "23.082006"
        },
        {
          "name": "Yijing Road",
          "longitude": "113.305099",
          "latitude": "23.081993"
        },
        {
          "name": "Shangyong",
          "longitude": "113.312873",
          "latitude": "23.079844"
        },
        {
          "name": "Datang",
          "longitude": "113.321677",
          "latitude": "23.077974"
        }
      ]
    },
    {
      "name": "Line 12",
      "stations": [
        {
          "name": "Xunfenggang",
          "longitude": "113.201941",
          "latitude": "23.164110"
        },
        {
          "name": "Xunfengang North",
          "longitude": "113.207073",
          "latitude": "23.172766"
        },
        {
          "name": "Xizhou",
          "longitude": "113.224106",
          "latitude": "23.184613"
        },
        {
          "name": "Julong",
          "longitude": "113.238723",
          "latitude": "23.181111"
        },
        {
          "name": "Guangzhou Baiyun Station",
          "longitude": "113.247644",
          "latitude": "23.190983"
        },
        {
          "name": "Tangyong",
          "longitude": "113.254272",
          "latitude": "23.195981"
        },
        {
          "name": "Xinshi Market",
          "longitude": "113.265280",
          "latitude": "23.194402"
        },
        {
          "name": "Baiyun Cultural Plaza",
          "longitude": "113.275602",
          "latitude": "23.189574"
        },
        {
          "name": "Guangzhou Gymnasium",
          "longitude": "113.278388",
          "latitude": "23.180651"
        }
      ]
    },
    {
      "name": "Line 12",
      "stations": [
        {
          "name": "Ersha Island",
          "longitude": "113.303966",
          "latitude": "23.109858"
        },
        {
          "name": "Chigang Tower",
          "longitude": "113.324659",
          "latitude": "23.102133"
        },
        {
          "name": "Chigang",
          "longitude": "113.334582",
          "latitude": "23.096448"
        },
        {
          "name": "Chisha North",
          "longitude": "113.346854",
          "latitude": "23.090174"
        },
        {
          "name": "Chisha",
          "longitude": "113.363512",
          "latitude": "23.084747"
        },
        {
          "name": "Beishan",
          "longitude": "113.375290",
          "latitude": "23.085225"
        },
        {
          "name": "Guanzhou",
          "longitude": "113.376960",
          "latitude": "23.067763"
        },
        {
          "name": "University Town North",
          "longitude": "113.385795",
          "latitude": "23.057937"
        },
        {
          "name": "University Town South",
          "longitude": "113.400478",
          "latitude": "23.043408"
        }
      ]
    },
    {
      "name": "Line 13",
      "stations": [
        {
          "name": "Tianhe Park",
          "longitude": "113.364025",
          "latitude": "23.124903"
        },
        {
          "name": "Tangxia",
          "longitude": "113.381651",
          "latitude": "23.125605"
        },
        {
          "name": "Chebei",
          "longitude": "113.396489",
          "latitude": "23.124704"
        },
        {
          "name": "Tianhe Zhucun",
          "longitude": "113.420673",
          "latitude": "23.116653"
        },
        {
          "name": "Yuzhu",
          "longitude": "113.432261",
          "latitude": "23.100431"
        },
        {
          "name": "Yufengwei",
          "longitude": "113.455795",
          "latitude": "23.094844"
        },
        {
          "name": "Shuanggang",
          "longitude": "113.474331",
          "latitude": "23.094468"
        },
        {
          "name": "Nanhai God Temple",
          "longitude": "113.497434",
          "latitude": "23.083718"
        },
        {
          "name": "Xiayuan",
          "longitude": "113.518376",
          "latitude": "23.082901"
        },
        {
          "name": "Nangang",
          "longitude": "113.541438",
          "latitude": "23.095253"
        },
        {
          "name": "Shacun",
          "longitude": "113.570399",
          "latitude": "23.110590"
        },
        {
          "name": "Baijiang",
          "longitude": "113.595627",
          "latitude": "23.123235"
        },
        {
          "name": "Xintang",
          "longitude": "113.604472",
          "latitude": "23.131731"
        },
        {
          "name": "Guanhu",
          "longitude": "113.636569",
          "latitude": "23.137226"
        },
        {
          "name": "Xinsha",
          "longitude": "113.649417",
          "latitude": "23.136863"
        }
      ]
    },
    {
      "name": "Line 14",
      "stations": [
        {
          "name": "Lejia Road",
          "longitude": "113.260291",
          "latitude": "23.171173"
        },
        {
          "name": "Yunxiao Road",
          "longitude": "113.260715",
          "latitude": "23.183549"
        },
        {
          "name": "Xinshi Market",
          "longitude": "113.263041",
          "latitude": "23.194285"
        },
        {
          "name": "Mawu",
          "longitude": "113.263788",
          "latitude": "23.201992"
        },
        {
          "name": "Hebian",
          "longitude": "113.266612",
          "latitude": "23.213004"
        },
        {
          "name": "Helong",
          "longitude": "113.272244",
          "latitude": "23.222575"
        },
        {
          "name": "Pengbian",
          "longitude": "113.281577",
          "latitude": "23.227194"
        },
        {
          "name": "Jiahe Wanggang",
          "longitude": "113.289243",
          "latitude": "23.237460"
        },
        {
          "name": "Baiyun Dongping",
          "longitude": "113.317841",
          "latitude": "23.251170"
        },
        {
          "name": "Xialiang",
          "longitude": "113.323505",
          "latitude": "23.277704"
        },
        {
          "name": "Taihe",
          "longitude": "113.347197",
          "latitude": "23.299284"
        },
        {
          "name": "Zhuliao",
          "longitude": "113.368332",
          "latitude": "23.348496"
        },
        {
          "name": "Zhongluotan",
          "longitude": "113.400686",
          "latitude": "23.375649"
        },
        {
          "name": "Mali",
          "longitude": "113.450388",
          "latitude": "23.393877"
        },
        {
          "name": "Xinhe",
          "longitude": "113.467060",
          "latitude": "23.413259"
        },
        {
          "name": "Taiping",
          "longitude": "113.491955",
          "latitude": "23.452090"
        },
        {
          "name": "Shengang",
          "longitude": "113.517396",
          "latitude": "23.475101"
        },
        {
          "name": "Chicao",
          "longitude": "113.560256",
          "latitude": "23.501220"
        },
        {
          "name": "Conghua Bus Station",
          "longitude": "113.594721",
          "latitude": "23.531769"
        },
        {
          "name": "Dongfeng",
          "longitude": "113.600801",
          "latitude": "23.566233"
        }
      ]
    },
    {
      "name": "Line 14 Branch (Knowledge City Line)",
      "stations": [
        {
          "name": "Xinhe",
          "longitude": "113.467060",
          "latitude": "23.413259"
        },
        {
          "name": "Hongwei",
          "longitude": "113.487415",
          "latitude": "23.399261"
        },
        {
          "name": "Xinnan",
          "longitude": "113.495228",
          "latitude": "23.377232"
        },
        {
          "name": "Fengxia",
          "longitude": "113.508322",
          "latitude": "23.363059"
        },
        {
          "name": "Knowledge City",
          "longitude": "113.525198",
          "latitude": "23.349377"
        },
        {
          "name": "Hetangxia",
          "longitude": "113.543688",
          "latitude": "23.331190"
        },
        {
          "name": "Wangcun",
          "longitude": "113.551749",
          "latitude": "23.323256"
        },
        {
          "name": "Tangcun",
          "longitude": "113.564686",
          "latitude": "23.307382"
        },
        {
          "name": "Zhenlong North",
          "longitude": "113.576945",
          "latitude": "23.289584"
        },
        {
          "name": "Zhenlong",
          "longitude": "113.593000",
          "latitude": "23.284514"
        }
      ]
    },
    {
      "name": "Line 18",
      "stations": [
        {
          "name": "Xiancun",
          "longitude": "113.328157",
          "latitude": "23.125722"
        },
        {
          "name": "Modiesha",
          "longitude": "113.341285",
          "latitude": "23.098689"
        },
        {
          "name": "Longtan",
          "longitude": "113.340902",
          "latitude": "23.079237"
        },
        {
          "name": "Shaxi",
          "longitude": "113.338180",
          "latitude": "23.035452"
        },
        {
          "name": "Nancun Wanbo",
          "longitude": "113.347555",
          "latitude": "23.004789"
        },
        {
          "name": "Panyu Square",
          "longitude": "113.385642",
          "latitude": "22.935482"
        },
        {
          "name": "Hengli",
          "longitude": "113.511088",
          "latitude": "22.753319"
        },
        {
          "name": "Wanqingsha",
          "longitude": "113.557043",
          "latitude": "22.698398"
        }
      ]
    },
    {
      "name": "Line 21",
      "stations": [
        {
          "name": "Tianhe Park",
          "longitude": "113.364025",
          "latitude": "23.124903"
        },
        {
          "name": "Tangdong",
          "longitude": "113.389329",
          "latitude": "23.130979"
        },
        {
          "name": "Huangcun",
          "longitude": "113.407274",
          "latitude": "23.131814"
        },
        {
          "name": "Daguan South Road",
          "longitude": "113.406947",
          "latitude": "23.144575"
        },
        {
          "name": "Tianhe Wisdom City",
          "longitude": "113.403184",
          "latitude": "23.163275"
        },
        {
          "name": "Shenzhou Road",
          "longitude": "113.431334",
          "latitude": "23.165215"
        },
        {
          "name": "Science City",
          "longitude": "113.449250",
          "latitude": "23.165651"
        },
        {
          "name": "Suyuan",
          "longitude": "113.468482",
          "latitude": "23.170970"
        },
        {
          "name": "Shuixi",
          "longitude": "113.478780",
          "latitude": "23.187489"
        },
        {
          "name": "Changping",
          "longitude": "113.489704",
          "latitude": "23.210341"
        },
        {
          "name": "Jinkeng",
          "longitude": "113.526727",
          "latitude": "23.249328"
        },
        {
          "name": "Zhenlong West",
          "longitude": "113.573793",
          "latitude": "23.278088"
        },
        {
          "name": "Zhenlong",
          "longitude": "113.593000",
          "latitude": "23.284514"
        },
        {
          "name": "Zhongxin",
          "longitude": "113.613131",
          "latitude": "23.285303"
        },
        {
          "name": "Kengbei",
          "longitude": "113.642606",
          "latitude": "23.278769"
        },
        {
          "name": "Fenggang",
          "longitude": "113.670634",
          "latitude": "23.275961"
        },
        {
          "name": "Zhucun",
          "longitude": "113.701415",
          "latitude": "23.272316"
        },
        {
          "name": "Shantian",
          "longitude": "113.744543",
          "latitude": "23.276428"
        },
        {
          "name": "Zhonggang",
          "longitude": "113.792047",
          "latitude": "23.279317"
        },
        {
          "name": "Zengcheng Square",
          "longitude": "113.814472",
          "latitude": "23.278024"
        }
      ]
    },
    {
      "name": "Line 22",
      "stations": [
        {
          "name": "Fangcun",
          "longitude": "113.235870",
          "latitude": "23.098570"
        },
        {
          "name": "Xilan",
          "longitude": "113.231514",
          "latitude": "23.065063"
        },
        {
          "name": "Nanjiao",
          "longitude": "113.248952",
          "latitude": "23.050697"
        },
        {
          "name": "Nanpu West",
          "longitude": "113.260513",
          "latitude": "23.038423"
        },
        {
          "name": "Chentougang",
          "longitude": "113.265636",
          "latitude": "23.013218"
        },
        {
          "name": "Guangzhou South Station",
          "longitude": "113.269815",
          "latitude": "22.988773"
        },
        {
          "name": "Shiguang Road",
          "longitude": "113.336998",
          "latitude": "22.971369"
        },
        {
          "name": "Panyu Square",
          "longitude": "113.385642",
          "latitude": "22.935482"
        }
      ]
    },
    {
      "name": "APM Line",
      "stations": [
        {
          "name": "Canton Tower",
          "longitude": "113.323464",
          "latitude": "23.106483"
        },
        {
          "name": "Haixinsha",
          "longitude": "113.324063",
          "latitude": "23.111378"
        },
        {
          "name": "Grand Theatre",
          "longitude": "113.324428",
          "latitude": "23.115804"
        },
        {
          "name": "Huacheng Avenue",
          "longitude": "113.324521",
          "latitude": "23.119227"
        },
        {
          "name": "Women and Children's Center",
          "longitude": "113.324558",
          "latitude": "23.122553"
        },
        {
          "name": "Huangpu Avenue",
          "longitude": "113.324490",
          "latitude": "23.127054"
        },
        {
          "name": "Tianhe South",
          "longitude": "113.324479",
          "latitude": "23.131576"
        },
        {
          "name": "Sports Center South",
          "longitude": "113.323876",
          "latitude": "23.134275"
        },
        {
          "name": "Linhe West",
          "longitude": "113.323902",
          "latitude": "23.141363"
        }
      ]
    },
    {
      "name": "Guangfo Line",
      "stations": [
        {
          "name": "Lijiao",
          "longitude": "113.319228",
          "latitude": "23.054798"
        },
        {
          "name": "Nanzhou",
          "longitude": "113.297449",
          "latitude": "23.064732"
        },
        {
          "name": "Shixi",
          "longitude": "113.285951",
          "latitude": "23.067937"
        },
        {
          "name": "Yangang",
          "longitude": "113.271988",
          "latitude": "23.075142"
        },
        {
          "name": "Shayuan",
          "longitude": "113.260584",
          "latitude": "23.088625"
        },
        {
          "name": "Shayong",
          "longitude": "113.246755",
          "latitude": "23.083097"
        },
        {
          "name": "Hedong",
          "longitude": "113.240153",
          "latitude": "23.072495"
        },
        {
          "name": "Xilan",
          "longitude": "113.231514",
          "latitude": "23.065063"
        },
        {
          "name": "Jushu",
          "longitude": "113.212863",
          "latitude": "23.065868"
        },
        {
          "name": "Longxi",
          "longitude": "113.192391",
          "latitude": "23.066029"
        },
        {
          "name": "Financial High-tech Zone",
          "longitude": "113.158548",
          "latitude": "23.065814"
        },
        {
          "name": "Qiandeng Lake",
          "longitude": "113.155356",
          "latitude": "23.054818"
        },
        {
          "name": "Leigang",
          "longitude": "113.155426",
          "latitude": "23.042607"
        },
        {
          "name": "Nangui Road",
          "longitude": "113.154139",
          "latitude": "23.034167"
        },
        {
          "name": "Guicheng",
          "longitude": "113.141432",
          "latitude": "23.031674"
        },
        {
          "name": "Chao'an",
          "longitude": "113.133537",
          "latitude": "23.027676"
        },
        {
          "name": "Pujun North Road",
          "longitude": "113.122240",
          "latitude": "23.027678"
        },
        {
          "name": "Zumiao",
          "longitude": "113.112099",
          "latitude": "23.027073"
        },
        {
          "name": "Tongji Road",
          "longitude": "113.108503",
          "latitude": "23.019222"
        },
        {
          "name": "Ji Hua Garden",
          "longitude": "113.108547",
          "latitude": "23.007104"
        },
        {
          "name": "Kuiqi Road",
          "longitude": "113.108612",
          "latitude": "22.993964"
        },
        {
          "name": "Lanshi",
          "longitude": "113.107107",
          "latitude": "22.983985"
        },
        {
          "name": "Century Lotus",
          "longitude": "113.114917",
          "latitude": "22.965147"
        },
        {
          "name": "Dongping",
          "longitude": "113.129190",
          "latitude": "22.965266"
        },
        {
          "name": "Xincheng East",
          "longitude": "113.140008",
          "latitude": "22.958653"
        }
      ]
    }
  ]
}
